Image Name, Time, UTM Zone, Easting (m), Northing (m), Altitude (m), Relative Altitude (m), Roll (rad), Pitch (rad), Yaw (rad)
1.jpg, 1479401001.09, 17, 537416.104234, 537416.104234, 542.52, 14.01, 0.0338648751147, -0.00502536382882, 0.362069495764
2.jpg, 1479401001.45, 17, 537416.100854, 537416.100854, 542.52, 14.01, 0.0337103884681, -0.00507453483489, 0.36189384533
3.jpg, 1479401001.92, 17, 537416.100915, 537416.100915, 542.537417257, 14.0274172571, 0.0335585575381, -0.00503927921489, 0.361996639943
4.jpg, 1479401002.22, 17, 537416.11303, 537416.11303, 542.54815369, 14.0381536902, 0.0335193993128, -0.00507869836449, 0.361852920104
5.jpg, 1479401002.67, 17, 537416.136328, 537416.136328, 542.54, 14.03, 0.0333038762717, -0.00496384348834, 0.361776214561
6.jpg, 1479401003.0, 17, 537416.128972, 537416.128972, 542.55, 14.04, 0.0334002270571, -0.00493293665171, 0.361778225133
7.jpg, 1479401003.32, 17, 537416.129276, 537416.129276, 542.542109641, 14.032109641, 0.0335096585871, -0.0047727031416, 0.361742888654
8.jpg, 1479401003.73, 17, 537416.127444, 537416.127444, 542.54, 14.03, 0.0332215644847, -0.00473688539614, 0.361780492011
9.jpg, 1479401004.09, 17, 537416.124026, 537416.124026, 542.52397345, 14.0139734503, 0.0332139137203, -0.00471114246344, 0.361791474086
10.jpg, 1479401004.53, 17, 537416.120434, 537416.120434, 542.528132062, 14.0181320619, 0.0331596536808, -0.00471759296417, 0.361661717576
11.jpg, 1479401004.84, 17, 537416.130992, 537416.130992, 542.54, 14.03, 0.0330556779982, -0.00472976977797, 0.361692201414
12.jpg, 1479401005.24, 17, 537416.138984, 537416.138984, 542.552841599, 14.0428415988, 0.0330453253862, -0.00477768820636, 0.361369473156
13.jpg, 1479401005.63, 17, 537416.14756, 537416.14756, 542.56, 14.05, 0.0329664508041, -0.00494738506886, 0.361105859414
14.jpg, 1479401005.98, 17, 537416.163214, 537416.163214, 542.559588738, 14.0495887378, 0.0329806872001, -0.00501124977902, 0.361270288395
15.jpg, 1479401006.34, 17, 537416.178174, 537416.178174, 542.542542725, 14.032542725, 0.0330540042797, -0.0052587525047, 0.361182277075
16.jpg, 1479401006.81, 17, 537416.2336, 537416.2336, 542.54, 14.03, 0.0332149248203, -0.00546858099407, 0.361253651958
17.jpg, 1479401007.13, 17, 537416.226489, 537416.226489, 542.547873909, 14.0378739086, 0.033354174227, -0.00558009197884, 0.361272967735
18.jpg, 1479401007.52, 17, 537416.235333, 537416.235333, 542.546074364, 14.0360743637, 0.0333815111942, -0.00570556401465, 0.361262896665
19.jpg, 1479401007.93, 17, 537416.268739, 537416.268739, 542.573782825, 14.0637828249, 0.0334605303586, -0.00565477909232, 0.361064736852
20.jpg, 1479401008.24, 17, 537416.25166, 537416.25166, 542.580289385, 14.0702893847, 0.0335118445902, -0.00564581218051, 0.360948815978
21.jpg, 1479401008.7, 17, 537416.258078, 537416.258078, 542.582938138, 14.0729381383, 0.0335145138998, -0.00564548542301, 0.360946079406
22.jpg, 1479401009.03, 17, 537416.262748, 537416.262748, 542.584865771, 14.0748657707, 0.0335164564911, -0.00564524762042, 0.360944087865
23.jpg, 1479401009.33, 17, 537416.267121, 537416.267121, 542.586670569, 14.0766705692, 0.033518275295, -0.00564502496773, 0.36094222323
24.jpg, 1479401009.62, 17, 537416.271159, 537416.271159, 542.588337535, 14.0783375349, 0.0335199551961, -0.00564481931606, 0.360940500998
25.jpg, 1479401010.01, 17, 537416.276743, 537416.276743, 542.590642125, 14.0806421255, 0.0335222776693, -0.00564453499657, 0.360938120003
26.jpg, 1479401010.28, 17, 537416.280457, 537416.280457, 542.592174955, 14.0821749547, 0.0335238223923, -0.00564434588692, 0.360936536355
27.jpg, 1479401010.66, 17, 537416.28596, 537416.28596, 542.594446059, 14.0844460586, 0.0335261111179, -0.00564406568968, 0.360934189957
28.jpg, 1479401010.99, 17, 537416.290605, 537416.290605, 542.596363327, 14.0863633268, 0.0335280432618, -0.00564382914271, 0.360932209126
29.jpg, 1479401011.32, 17, 537416.295183, 537416.295183, 542.598253114, 14.0882531137, 0.0335299477108, -0.00564359598254, 0.360930256688
30.jpg, 1479401011.6, 17, 537416.299275, 537416.299275, 542.599941847, 14.0899418466, 0.0335316495455, -0.0056433876251, 0.36092851197
31.jpg, 1479401012.0, 17, 537416.304802, 537416.304802, 542.602223156, 14.0922231557, 0.0335339485532, -0.00564310615032, 0.360926155031
32.jpg, 1479401012.33, 17, 537416.309478, 537416.309478, 542.604153073, 14.0941530734, 0.0335358934429, -0.00564286802705, 0.360924161133
33.jpg, 1479401012.62, 17, 537416.313611, 537416.313611, 542.605858762, 14.0958587615, 0.0335376123631, -0.00564265756715, 0.360922398898
34.jpg, 1479401012.95, 17, 537416.318391, 537416.318391, 542.607831788, 14.0978317883, 0.0335396006954, -0.00564241411733, 0.360920360463
35.jpg, 1479401013.23, 17, 537416.322256, 537416.322256, 542.609427094, 14.0994270942, 0.0335412083763, -0.00564221727116, 0.360918712271
36.jpg, 1479401013.63, 17, 537416.327933, 537416.327933, 542.611770144, 14.1017701437, 0.0335435696006, -0.00564192815546, 0.360916291548
37.jpg, 1479401014.1, 17, 537416.334592, 537416.334592, 542.614518553, 14.1045185529, 0.033546339328, -0.00564158901395, 0.360913452027
38.jpg, 1479401014.51, 17, 537416.340443, 537416.340443, 542.616933191, 14.1069331911, 0.0335487726946, -0.00564129105182, 0.360910957343
39.jpg, 1479401014.95, 17, 537416.346728, 537416.346728, 542.619527228, 14.1095272277, 0.0335513868503, -0.00564097094548, 0.360908277315
40.jpg, 1479401015.31, 17, 537416.351811, 537416.351811, 542.621625222, 14.1116252217, 0.0335535011155, -0.0056407120461, 0.360906109773
41.jpg, 1479401015.64, 17, 537416.356498, 537416.356498, 542.623559935, 14.1135599345, 0.0335554508328, -0.00564047329208, 0.360904110926
42.jpg, 1479401016.0, 17, 537416.361589, 537416.361589, 542.625661279, 14.1156612791, 0.0335575684735, -0.00564021397039, 0.360901939923
43.jpg, 1479401016.34, 17, 537416.366371, 537416.366371, 542.627634604, 14.1176346043, 0.0335595571015, -0.00563997044307, 0.360899901185
44.jpg, 1479401016.69, 17, 537416.371303, 537416.371303, 542.629670324, 14.1196703238, 0.0335616086071, -0.00563971921144, 0.360897797984
45.jpg, 1479401017.01, 17, 537416.375801, 537416.375801, 542.63152701, 14.1215270103, 0.0335634796909, -0.00563949007083, 0.360895879751
46.jpg, 1479401017.32, 17, 537416.380249, 537416.380249, 542.633362542, 14.1233625417, 0.0335653294552, -0.00563926353752, 0.360893983375
47.jpg, 1479401017.7, 17, 537416.385591, 537416.385591, 542.635567665, 14.1255676649, 0.0335675516766, -0.00563899138614, 0.360891705157
48.jpg, 1479401018.02, 17, 537416.390173, 537416.390173, 542.637458767, 14.1274587667, 0.0335694574411, -0.00563875798656, 0.36088975137
49.jpg, 1479401018.35, 17, 537416.394776, 537416.394776, 542.639358526, 14.129358526, 0.0335713719299, -0.00563852351471, 0.360887788638
50.jpg, 1479401018.7, 17, 537416.399723, 537416.399723, 542.641400311, 14.131400311, 0.033573429545, -0.00563827150961, 0.360885679174
51.jpg, 1479401019.02, 17, 537416.40426, 537416.40426, 542.643272857, 14.1332728568, 0.0335753166083, -0.00563804038885, 0.360883744559
52.jpg, 1479401019.34, 17, 537416.408791, 537416.408791, 542.645142859, 14.1351428593, 0.0335772011081, -0.00563780957836, 0.360881812572
53.jpg, 1479401019.67, 17, 537416.413544, 537416.413544, 542.647104832, 14.1371048317, 0.0335791782904, -0.0056375674123, 0.360879785568
54.jpg, 1479401020.01, 17, 537416.418316, 537416.418316, 542.649074407, 14.1390744075, 0.0335811631344, -0.00563732430373, 0.360877750708
55.jpg, 1479401020.32, 17, 537416.42278, 537416.42278, 542.650916916, 14.1409169162, 0.033583019926, -0.00563709687564, 0.360875847128
56.jpg, 1479401020.6, 17, 537416.426766, 537416.426766, 542.652562016, 14.1425620157, 0.0335846777777, -0.00563689381155, 0.3608741475
57.jpg, 1479401021.06, 17, 537416.433233, 537416.433233, 542.655230999, 14.1452309986, 0.0335873674487, -0.00563656435766, 0.360871390053
58.jpg, 1479401021.34, 17, 537416.437161, 537416.437161, 542.656852458, 14.1468524583, 0.0335890014764, -0.00563636420431, 0.360869714849
59.jpg, 1479401021.7, 17, 537416.442328, 537416.442328, 542.658984968, 14.148984968, 0.0335911505148, -0.00563610096266, 0.360867511658
60.jpg, 1479401022.03, 17, 537416.446993, 537416.446993, 542.660910559, 14.150910559, 0.0335930910303, -0.00563586325944, 0.360865522244
61.jpg, 1479401022.35, 17, 537416.451529, 537416.451529, 542.662782555, 14.1527825554, 0.0335949775353, -0.00563563216846, 0.360863588201
62.jpg, 1479401022.81, 17, 537416.458036, 537416.458036, 542.665468234, 14.1554682342, 0.0335976840281, -0.00563530062506, 0.360860813508
63.jpg, 1479401023.15, 17, 537416.462883, 537416.462883, 542.667468841, 14.1574688413, 0.0335997001393, -0.00563505364796, 0.360858746593
64.jpg, 1479401023.49, 17, 537416.467585, 537416.467585, 542.669409661, 14.1594096614, 0.0336016559998, -0.00563481404763, 0.360856741447
65.jpg, 1479401023.81, 17, 537416.472125, 537416.472125, 542.671283113, 14.1612831135, 0.0336035439697, -0.00563458276038, 0.360854805902
66.jpg, 1479401024.14, 17, 537416.476806, 537416.476806, 542.673215441, 14.1632154406, 0.0336054912704, -0.00563434420087, 0.360852809532
67.jpg, 1479401024.45, 17, 537416.481286, 537416.481286, 542.67506446, 14.1650644596, 0.0336073546169, -0.00563411592272, 0.360850899231
68.jpg, 1479401024.77, 17, 537416.485786, 537416.485786, 542.676921747, 14.166921747, 0.0336092262955, -0.00563388662016, 0.360848980388
69.jpg, 1479401025.07, 17, 537416.489949, 537416.489949, 542.678639781, 14.1686397807, 0.033610957641, -0.0056336745068, 0.360847205414
70.jpg, 1479401025.4, 17, 537416.494646, 537416.494646, 542.680578488, 14.1705784884, 0.0336129113699, -0.00563343514472, 0.360845202454
71.jpg, 1479401025.74, 17, 537416.499446, 537416.499446, 542.682559773, 14.1725597725, 0.0336149080046, -0.0056331905219, 0.360843155506
72.jpg, 1479401026.05, 17, 537416.503949, 537416.503949, 542.684418032, 14.1744180318, 0.0336167806608, -0.00563296108485, 0.360841235661
73.jpg, 1479401026.43, 17, 537416.509296, 537416.509296, 542.68662492, 14.1766249203, 0.0336190046466, -0.0056326885983, 0.360838955633
74.jpg, 1479401026.77, 17, 537416.514166, 537416.514166, 542.688635084, 14.1786350842, 0.0336210303833, -0.00563244039711, 0.360836878849
75.jpg, 1479401027.06, 17, 537416.518271, 537416.518271, 542.690329367, 14.1803293666, 0.0336227377909, -0.00563223119552, 0.360835128417
76.jpg, 1479401027.44, 17, 537416.523607, 537416.523607, 542.692531905, 14.1825319047, 0.033624957391, -0.00563195923257, 0.360832852885
77.jpg, 1479401027.73, 17, 537416.527672, 537416.527672, 542.694209696, 14.1842096961, 0.033626648179, -0.00563175206041, 0.360831119491
78.jpg, 1479401028.06, 17, 537416.53237, 537416.53237, 542.696148428, 14.1861484275, 0.0336286019279, -0.00563151266397, 0.360829116509
79.jpg, 1479401028.39, 17, 537416.53701, 537416.53701, 542.698063573, 14.1880635735, 0.0336305319082, -0.00563127617604, 0.360827137895
80.jpg, 1479401028.78, 17, 537416.541687, 537416.541687, 542.7, 14.19, 0.0339011220332, -0.006205858202, 0.360361343503
81.jpg, 1479401029.19, 17, 537416.553495, 537416.553495, 542.7, 14.19, 0.0345952136497, -0.00755541519359, 0.359371919787
82.jpg, 1479401029.57, 17, 537416.52967, 537416.52967, 542.716446479, 14.2064464788, 0.0345423985491, -0.00751565843395, 0.359237774806
83.jpg, 1479401029.92, 17, 537416.522251, 537416.522251, 542.720437962, 14.2104379625, 0.03445350269, -0.00747066219453, 0.358928418347
84.jpg, 1479401030.31, 17, 537416.478712, 537416.478712, 542.730694972, 14.2206949723, 0.034333570432, -0.00745913161959, 0.358875097419
85.jpg, 1479401030.66, 17, 537416.47752, 537416.47752, 542.74, 14.23, 0.034293692287, -0.00751000654466, 0.358664541804
86.jpg, 1479401031.07, 17, 537416.470358, 537416.470358, 542.75, 14.24, 0.0343692649065, -0.00745125022198, 0.358560396557
87.jpg, 1479401031.39, 17, 537416.47928, 537416.47928, 542.745254256, 14.2352542558, 0.0343273965287, -0.00725204853531, 0.358361672153
88.jpg, 1479401031.86, 17, 537416.448698, 537416.448698, 542.74, 14.23, 0.0342145853581, -0.00700331541071, 0.358186738479
89.jpg, 1479401032.17, 17, 537416.438787, 537416.438787, 542.74, 14.23, 0.0341829251451, -0.00690025723851, 0.358097608087
90.jpg, 1479401032.53, 17, 537416.417465, 537416.417465, 542.74, 14.23, 0.0340842320695, -0.00664850525159, 0.35800663484
91.jpg, 1479401032.94, 17, 537416.418674, 537416.418674, 542.738794339, 14.2287943393, 0.034366940864, -0.00647474316944, 0.357793420494
92.jpg, 1479401033.27, 17, 537416.426554, 537416.426554, 542.73760466, 14.2276046596, 0.0342778967358, -0.00636969129057, 0.357506351447
93.jpg, 1479401033.69, 17, 537416.41889, 537416.41889, 542.74, 14.23, 0.034027303456, -0.0062852634154, 0.357397561567
94.jpg, 1479401034.1, 17, 537416.392565, 537416.392565, 542.759409661, 14.2494096612, 0.0339482372183, -0.00629302822601, 0.357090227696
95.jpg, 1479401034.47, 17, 537416.384909, 537416.384909, 542.7775495, 14.2675494997, 0.0340094484963, -0.00624486885403, 0.356905940991
96.jpg, 1479401034.83, 17, 537416.359836, 537416.359836, 542.784095456, 14.2740954563, 0.0342370475527, -0.00644543576136, 0.356720570994
97.jpg, 1479401035.22, 17, 537416.351179, 537416.351179, 542.78, 14.27, 0.0343293557902, -0.00649196557858, 0.356743126316
98.jpg, 1479401035.63, 17, 537416.321103, 537416.321103, 542.78, 14.27, 0.0341271116237, -0.00643877181681, 0.356663847894
99.jpg, 1479401036.01, 17, 537416.315762, 537416.315762, 542.79, 14.28, 0.0339277689235, -0.00637163842482, 0.356541874101
100.jpg, 1479401036.38, 17, 537416.306355, 537416.306355, 542.786244725, 14.276244725, 0.0338978541682, -0.00634977253189, 0.356517270188
101.jpg, 1479401036.84, 17, 537416.313299, 537416.313299, 542.79, 14.28, 0.0339838786883, -0.00639248320499, 0.35640615812
102.jpg, 1479401037.2, 17, 537416.320702, 537416.320702, 542.8, 14.29, 0.0338400342571, -0.00650218098789, 0.356231112358
103.jpg, 1479401037.55, 17, 537416.319554, 537416.319554, 542.801107009, 14.2911070088, 0.0336286056322, -0.00640290184165, 0.356004037764
104.jpg, 1479401037.96, 17, 537416.319285, 537416.319285, 542.81, 14.3, 0.0334803569645, -0.00630809185532, 0.355796718863
105.jpg, 1479401038.27, 17, 537416.311564, 537416.311564, 542.817484777, 14.3074847771, 0.0335357377958, -0.00643924909258, 0.355642419436
106.jpg, 1479401038.73, 17, 537416.320377, 537416.320377, 542.819890964, 14.3098909637, 0.0333098108704, -0.00655240110126, 0.355424963073
107.jpg, 1479401039.1, 17, 537416.327944, 537416.327944, 542.828470873, 14.3184708729, 0.0332472765946, -0.00657701283468, 0.35532442868
108.jpg, 1479401039.46, 17, 537416.335354, 537416.335354, 542.84, 14.33, 0.0332521522244, -0.00663882043552, 0.355187295649
109.jpg, 1479401039.88, 17, 537416.329083, 537416.329083, 542.864191723, 14.3541917225, 0.0333284849902, -0.00669660039184, 0.355096436125
110.jpg, 1479401040.25, 17, 537416.334805, 537416.334805, 542.88, 14.37, 0.0334550723392, -0.00671630860138, 0.354941432932
111.jpg, 1479401040.62, 17, 537416.359574, 537416.359574, 542.87, 14.36, 0.0333787031459, -0.00655653910042, 0.354931195542
112.jpg, 1479401041.09, 17, 537416.380477, 537416.380477, 542.878065572, 14.3680655725, 0.0334282040378, -0.00647731341467, 0.354829133094
113.jpg, 1479401041.47, 17, 537416.411363, 537416.411363, 542.873499432, 14.3634994324, 0.0336128809128, -0.0064691426549, 0.354473653339
114.jpg, 1479401041.84, 17, 537416.413125, 537416.413125, 542.85, 14.34, 0.0337066905321, -0.00655410410351, 0.354343262283
115.jpg, 1479401042.23, 17, 537416.416344, 537416.416344, 542.845654099, 14.3356540989, 0.0336398925179, -0.00661304649035, 0.353993945711
116.jpg, 1479401042.56, 17, 537416.425333, 537416.425333, 542.84, 14.33, 0.0334792228116, -0.00650490236731, 0.353737132998
117.jpg, 1479401042.97, 17, 537416.435304, 537416.435304, 542.82, 14.31, 0.0334513773276, -0.00654200611161, 0.353557276156
118.jpg, 1479401043.31, 17, 537416.435304, 537416.435304, 542.82, 14.31, 0.0333876876039, -0.00653422466307, 0.353373172088
119.jpg, 1479401043.74, 17, 537416.418046, 537416.418046, 542.82933504, 14.3193350404, 0.033267983692, -0.00685657420998, 0.353142375804
120.jpg, 1479401044.09, 17, 537416.4022, 537416.4022, 542.822865039, 14.312865039, 0.0331972505633, -0.00684063564158, 0.352926662701
121.jpg, 1479401044.5, 17, 537416.377331, 537416.377331, 542.827606562, 14.3176065619, 0.0331583951656, -0.00686467703469, 0.352640194137
122.jpg, 1479401044.81, 17, 537416.35021, 537416.35021, 542.82, 14.31, 0.0330815542775, -0.00682911947219, 0.352494368687
123.jpg, 1479401045.22, 17, 537416.337464, 537416.337464, 542.83356763, 14.3235676299, 0.0328766186443, -0.00690166535169, 0.352379502579
124.jpg, 1479401045.55, 17, 537416.310349, 537416.310349, 542.84, 14.33, 0.0329081535905, -0.00689794415213, 0.352108535948
125.jpg, 1479401045.98, 17, 537416.301738, 537416.301738, 542.840252645, 14.3302526453, 0.0330293316661, -0.00697552076766, 0.352047665307
126.jpg, 1479401046.39, 17, 537416.272023, 537416.272023, 542.86, 14.35, 0.0331681936134, -0.00692673974007, 0.351958648697
127.jpg, 1479401046.77, 17, 537416.239791, 537416.239791, 542.86, 14.35, 0.0332357961338, -0.00698508602183, 0.351565976396
128.jpg, 1479401047.13, 17, 537416.261837, 537416.261837, 542.86, 14.35, 0.0329414857399, -0.00693432414672, 0.351479544626
129.jpg, 1479401047.49, 17, 537416.255005, 537416.255005, 542.85, 14.34, 0.0327237303558, -0.00697905309552, 0.351473608514
130.jpg, 1479401047.91, 17, 537416.221358, 537416.221358, 542.84679784, 14.3367978402, 0.0324710405335, -0.00680865908618, 0.351000550039
131.jpg, 1479401048.21, 17, 537416.21063, 537416.21063, 542.852216563, 14.3422165632, 0.0323071906883, -0.00670389276353, 0.350814923629
132.jpg, 1479401048.7, 17, 537416.198234, 537416.198234, 542.833815395, 14.3238153949, 0.0322796886912, -0.00661198937424, 0.350718055854
133.jpg, 1479401049.06, 17, 537416.190035, 537416.190035, 542.83, 14.32, 0.032334937039, -0.00647163208505, 0.350721935926
134.jpg, 1479401049.4, 17, 537416.195003, 537416.195003, 542.83, 14.32, 0.0324316298484, -0.00639326558602, 0.350601600294
135.jpg, 1479401049.81, 17, 537416.195194, 537416.195194, 542.841578168, 14.3315781679, 0.032472790338, -0.0062983558691, 0.350381139616
136.jpg, 1479401050.14, 17, 537416.195234, 537416.195234, 542.86649508, 14.3564950804, 0.0325055890818, -0.00612702942144, 0.350426326982
137.jpg, 1479401050.57, 17, 537416.179732, 537416.179732, 542.89, 14.38, 0.0325334000981, -0.00602645040627, 0.350297316654
138.jpg, 1479401050.92, 17, 537416.168179, 537416.168179, 542.883049753, 14.3730497529, 0.032487251431, -0.00601996186274, 0.350053120244
139.jpg, 1479401051.36, 17, 537416.126497, 537416.126497, 542.878954161, 14.3689541611, 0.032611210964, -0.00608905506644, 0.349842607109
140.jpg, 1479401051.69, 17, 537416.115865, 537416.115865, 542.89, 14.38, 0.0325416503277, -0.00604359042849, 0.349613486544
141.jpg, 1479401052.12, 17, 537416.092761, 537416.092761, 542.9, 14.39, 0.0323446019926, -0.006040635377, 0.349270183456
142.jpg, 1479401052.5, 17, 537416.084773, 537416.084773, 542.9, 14.39, 0.0323941148866, -0.00611284011292, 0.349194356878
143.jpg, 1479401052.82, 17, 537416.070301, 537416.070301, 542.9, 14.39, 0.0323631797606, -0.00590941360774, 0.349146802381
144.jpg, 1479401053.28, 17, 537416.059435, 537416.059435, 542.906103114, 14.3961031137, 0.032205119693, -0.00557896287823, 0.348843893022
145.jpg, 1479401053.66, 17, 537416.053923, 537416.053923, 542.92, 14.41, 0.0320479741012, -0.00543824374411, 0.348598995817
146.jpg, 1479401054.05, 17, 537416.045015, 537416.045015, 542.92, 14.41, 0.0317764271828, -0.0053444027855, 0.348262448856
147.jpg, 1479401054.46, 17, 537416.064774, 537416.064774, 542.91, 14.4, 0.0315056893171, -0.00503983190039, 0.347674279485
148.jpg, 1479401054.83, 17, 537416.080914, 537416.080914, 542.91, 14.4, 0.0315278011305, -0.00488565528044, 0.347322410218
149.jpg, 1479401055.16, 17, 537416.089142, 537416.089142, 542.901072637, 14.3910726365, 0.0315716362982, -0.00497092333301, 0.347143358733
150.jpg, 1479401055.57, 17, 537416.095901, 537416.095901, 542.92540452, 14.4154045203, 0.0317552584083, -0.00501991784904, 0.346923874062
151.jpg, 1479401056.01, 17, 537416.089415, 537416.089415, 542.920311917, 14.4103119168, 0.0318157418186, -0.00515639831049, 0.346614467994
152.jpg, 1479401056.36, 17, 537416.058361, 537416.058361, 542.93, 14.42, 0.0319329951879, -0.00521702732928, 0.346373713495
153.jpg, 1479401056.72, 17, 537416.05384, 537416.05384, 542.924312643, 14.4143126434, 0.0317873863909, -0.00516640125612, 0.346342816436
154.jpg, 1479401057.1, 17, 537416.023022, 537416.023022, 542.914917924, 14.4049179242, 0.0317128424488, -0.00507869750968, 0.346323386909
155.jpg, 1479401057.5, 17, 537415.942188, 537415.942188, 542.92, 14.41, 0.0318805965004, -0.00516416858753, 0.346155221565
156.jpg, 1479401057.82, 17, 537415.901766, 537415.901766, 542.93, 14.42, 0.0318125885902, -0.00538646092942, 0.346158709248
157.jpg, 1479401058.23, 17, 537415.881671, 537415.881671, 542.932119944, 14.4221199438, 0.0320491756209, -0.00554449444869, 0.345955510715
158.jpg, 1479401058.65, 17, 537415.851075, 537415.851075, 542.94898241, 14.4389824096, 0.0320329570616, -0.00553310886817, 0.345840726716
159.jpg, 1479401058.99, 17, 537415.844413, 537415.844413, 542.94, 14.43, 0.0320783472676, -0.00554229691932, 0.345673903167
160.jpg, 1479401059.35, 17, 537415.822201, 537415.822201, 542.95, 14.44, 0.0320142427955, -0.00573256109569, 0.345395854155
161.jpg, 1479401059.78, 17, 537415.805757, 537415.805757, 542.957347773, 14.4473477727, 0.0320563289853, -0.0056484727081, 0.34505927198
162.jpg, 1479401060.14, 17, 537415.805744, 537415.805744, 542.96, 14.45, 0.0319698680038, -0.00572988229631, 0.344936105933
163.jpg, 1479401060.53, 17, 537415.770437, 537415.770437, 542.96, 14.45, 0.0318388905148, -0.00585564908341, 0.344657903967
164.jpg, 1479401060.96, 17, 537415.756689, 537415.756689, 542.952728584, 14.4427285842, 0.0319623639674, -0.00602696809757, 0.344610951648
165.jpg, 1479401061.3, 17, 537415.769694, 537415.769694, 542.95, 14.44, 0.0320331278333, -0.00596953026997, 0.344585503621
166.jpg, 1479401061.68, 17, 537415.780975, 537415.780975, 542.95, 14.44, 0.03199478463, -0.0060925981997, 0.344474079382
167.jpg, 1479401062.09, 17, 537415.819211, 537415.819211, 542.96, 14.45, 0.0318558119486, -0.00597270719196, 0.344028937437
168.jpg, 1479401062.48, 17, 537415.82976, 537415.82976, 542.96747892, 14.4574789203, 0.0320245644736, -0.0060125170978, 0.343693419214
169.jpg, 1479401062.8, 17, 537415.815352, 537415.815352, 542.96, 14.45, 0.0321614876259, -0.00615494620826, 0.343601638756
170.jpg, 1479401063.24, 17, 537415.787205, 537415.787205, 542.970251397, 14.4602513971, 0.0321185960469, -0.00642341555499, 0.343444516882
171.jpg, 1479401063.65, 17, 537415.796376, 537415.796376, 542.99, 14.48, 0.0322127144199, -0.00665201784861, 0.343319461821
172.jpg, 1479401064.0, 17, 537415.804727, 537415.804727, 543.006111994, 14.4961119941, 0.0323288313463, -0.00679522831796, 0.343280173469
173.jpg, 1479401064.38, 17, 537415.813501, 537415.813501, 543.003491035, 14.4934910349, 0.0324486143498, -0.0068603527041, 0.343185134476
174.jpg, 1479401064.78, 17, 537415.816448, 537415.816448, 542.99, 14.48, 0.0324589381551, -0.00687153283293, 0.343070104395
175.jpg, 1479401065.12, 17, 537415.828116, 537415.828116, 542.993418804, 14.4834188036, 0.0323844214411, -0.00693673008172, 0.342972440268
176.jpg, 1479401065.6, 17, 537415.837869, 537415.837869, 542.98742215, 14.4774221502, 0.0325667192802, -0.00709814671119, 0.34282352535
177.jpg, 1479401065.95, 17, 537415.844852, 537415.844852, 542.98, 14.47, 0.0326355010088, -0.00704578019552, 0.342681394467
178.jpg, 1479401066.3, 17, 537415.809439, 537415.809439, 542.98, 14.47, 0.0326732894906, -0.00704889233006, 0.342486030279
179.jpg, 1479401066.72, 17, 537415.795537, 537415.795537, 542.99, 14.48, 0.0329512799792, -0.00701539492052, 0.342368503359
180.jpg, 1479401067.11, 17, 537415.775498, 537415.775498, 543.0, 14.49, 0.033155830351, -0.00697080552928, 0.342213712334
181.jpg, 1479401067.49, 17, 537415.773379, 537415.773379, 543.01, 14.5, 0.0332683524645, -0.00697998261433, 0.342137859607
182.jpg, 1479401067.85, 17, 537415.80394, 537415.80394, 543.019706562, 14.5097065617, 0.0332861938332, -0.00693019818929, 0.342116371627
183.jpg, 1479401068.2, 17, 537415.822358, 537415.822358, 543.02, 14.51, 0.0335067591577, -0.00693219421494, 0.341886885254
184.jpg, 1479401068.6, 17, 537415.864717, 537415.864717, 543.03, 14.52, 0.0336157200293, -0.00691549018245, 0.34189118963
185.jpg, 1479401068.95, 17, 537415.867053, 537415.867053, 543.054923412, 14.5449234121, 0.033550391215, -0.00690314189249, 0.341760036467
186.jpg, 1479401069.33, 17, 537415.870005, 537415.870005, 543.05, 14.54, 0.0334685385629, -0.00687927923977, 0.341652202237
187.jpg, 1479401069.72, 17, 537415.884728, 537415.884728, 543.04, 14.53, 0.0331210309164, -0.00658571675228, 0.341537614773
188.jpg, 1479401070.09, 17, 537415.865858, 537415.865858, 543.05, 14.54, 0.0330684973586, -0.00629908587436, 0.34133706211
189.jpg, 1479401070.5, 17, 537415.867181, 537415.867181, 543.061154435, 14.5511544354, 0.0327814443031, -0.00598411656835, 0.341382027153
190.jpg, 1479401070.89, 17, 537415.876103, 537415.876103, 543.049420007, 14.5394200069, 0.032723333743, -0.00587601632884, 0.341223882578
191.jpg, 1479401071.24, 17, 537415.876149, 537415.876149, 543.048436454, 14.5384364538, 0.0327393166773, -0.00585739724554, 0.34129417098
192.jpg, 1479401071.66, 17, 537415.858498, 537415.858498, 543.069039517, 14.5590395169, 0.0330210179742, -0.00799453789643, 0.341191647293
193.jpg, 1479401071.96, 17, 537415.858377, 537415.858377, 543.07, 14.56, 0.032974982609, -0.00709076173336, 0.339741188893
194.jpg, 1479401072.38, 17, 537415.849525, 537415.849525, 543.085325635, 14.5753256352, 0.0326125008736, -0.00496590702004, 0.340571999152
195.jpg, 1479401072.76, 17, 537415.849504, 537415.849504, 543.09, 14.58, 0.0328285321438, -0.00523707611057, 0.340451318301
196.jpg, 1479401073.07, 17, 537415.851995, 537415.851995, 543.09, 14.58, 0.0326014747059, -0.00524232506158, 0.33990496284
197.jpg, 1479401073.43, 17, 537415.827596, 537415.827596, 543.09, 14.58, 0.0325539952323, -0.00512436757143, 0.339651262311
198.jpg, 1479401073.9, 17, 537415.726088, 537415.726088, 543.1, 14.59, 0.0323385661828, -0.00560522315506, 0.339901211364
199.jpg, 1479401074.22, 17, 537415.648872, 537415.648872, 543.1, 14.59, 0.0319721513488, -0.00481211576886, 0.339511068868
200.jpg, 1479401074.6, 17, 537415.555552, 537415.555552, 543.115496341, 14.6054963411, 0.0318861983522, -0.00444722668197, 0.339631699981
201.jpg, 1479401074.97, 17, 537415.43105, 537415.43105, 543.12, 14.61, 0.0319268945483, -0.00460312710997, 0.339187084842
202.jpg, 1479401075.33, 17, 537415.422773, 537415.422773, 543.108211974, 14.5982119737, 0.0318499182868, -0.00448635549283, 0.339300221465
203.jpg, 1479401075.65, 17, 537415.465174, 537415.465174, 543.1, 14.59, 0.0317711029396, -0.00461532686179, 0.338793254594
204.jpg, 1479401076.1, 17, 537415.47117, 537415.47117, 543.100511072, 14.5905110719, 0.0317030645151, -0.00454228236457, 0.338581884565
205.jpg, 1479401076.52, 17, 537415.426036, 537415.426036, 543.11, 14.6, 0.0315456452282, -0.0046630696551, 0.338144094435
206.jpg, 1479401076.91, 17, 537415.409097, 537415.409097, 543.11, 14.6, 0.0313470193127, -0.00489830895575, 0.337824523848
207.jpg, 1479401077.29, 17, 537415.409459, 537415.409459, 543.11, 14.6, 0.0314252496132, -0.00488425642177, 0.337657544959
208.jpg, 1479401077.74, 17, 537415.42516, 537415.42516, 543.108497061, 14.5984970608, 0.031190368573, -0.00479929412898, 0.337482308901
209.jpg, 1479401078.14, 17, 537415.402744, 537415.402744, 543.101620058, 14.5916200584, 0.030941434943, -0.00470753920371, 0.33741482317
210.jpg, 1479401078.52, 17, 537415.416212, 537415.416212, 543.111370895, 14.6013708947, 0.0310857968788, -0.00469171245481, 0.337269835303
211.jpg, 1479401078.87, 17, 537415.385206, 537415.385206, 543.13, 14.62, 0.0310817115858, -0.00464392986945, 0.337222857077
212.jpg, 1479401079.27, 17, 537415.399581, 537415.399581, 543.137699442, 14.6276994418, 0.0311576128745, -0.00460263946509, 0.337156548784
213.jpg, 1479401079.52, 17, 537415.407849, 537415.407849, 543.141867497, 11.8978523562, 0.0311986001066, -0.00459870543018, 0.337190970776
214.jpg, 1479401079.68, 17, 537415.414984, 537415.414984, 543.14347908, 9.54010560499, 0.0312296386548, -0.00460367247682, 0.337212084517
215.jpg, 1479401079.82, 17, 537415.420842, 537415.420842, 543.144802099, 7.60452882512, 0.0312551194701, -0.00460775063111, 0.337229417589
216.jpg, 1479401079.98, 17, 537415.428099, 537415.428099, 543.146441254, 5.20644568841, 0.0312866888327, -0.00461280387354, 0.337250892258
217.jpg, 1479401080.14, 17, 537415.434835, 537415.434835, 543.147962541, 2.98080279084, 0.0313159880238, -0.00461749435633, 0.337270822595
218.jpg, 1479401080.28, 17, 537415.441021, 537415.441021, 543.14935981, 0.936598249187, 0.031342898611, -0.00462180297709, 0.337289128054
219.jpg, 1479401080.52, 17, 537415.452575, 537415.452575, 543.15, 0.0, 0.0300840078605, 0.00200615424766, 0.468638793091
220.jpg, 1479401081.94, 17, 537415.481659, 537415.481659, 543.148753675, -0.0012463251522, 0.0297362668685, 0.00263617570812, 0.470761325962
221.jpg, 1479401082.29, 17, 537415.513188, 537415.513188, 543.149059078, -0.000940921658986, 0.0289702809156, 0.00298570091333, 0.471022864174
222.jpg, 1479401082.78, 17, 537415.563965, 537415.563965, 543.172649191, 0.0226491907398, 0.0293171100183, 0.0036392807825, 0.470286473049
223.jpg, 1479401083.22, 17, 537415.599499, 537415.599499, 543.200818887, 0.0508188874139, 0.028821597266, 0.00395758824542, 0.470242383223
224.jpg, 1479401083.61, 17, 537415.61636, 537415.61636, 543.22, 0.07, 0.0279838211782, 0.00472925424417, 0.469640441893
225.jpg, 1479401083.95, 17, 537415.631708, 537415.631708, 543.231671945, 0.0816719453183, 0.0266591707883, 0.0054001115549, 0.469333907853
226.jpg, 1479401084.34, 17, 537415.641118, 537415.641118, 543.246826503, 0.096826502526, 0.0242566293091, 0.00678516322576, 0.468580588344
227.jpg, 1479401084.77, 17, 537415.647924, 537415.647924, 543.321182329, 0.171182328558, 0.0144039407907, 0.00757864362986, 0.46776932763
228.jpg, 1479401085.15, 17, 537415.647869, 537415.647869, 543.36110216, 0.211102160286, 0.00168870028011, 0.00992865047141, 0.467729597892
229.jpg, 1479401085.55, 17, 537415.647776, 537415.647776, 543.399872223, 0.249872222536, 0.0202475924886, 0.0102746693293, 0.468490610463
230.jpg, 1479401086.04, 17, 537415.656278, 537415.656278, 543.552364499, 0.402364499056, -0.0340296923012, 0.0112076019095, 0.472621679794
231.jpg, 1479401086.45, 17, 537415.659066, 537415.659066, 543.649883946, 0.499883945632, 0.00743743133055, 0.0134910127342, 0.458044298295
232.jpg, 1479401086.87, 17, 537415.685578, 537415.685578, 543.902198956, 0.752198955677, 0.0250797622186, -0.00940895966019, 0.466627310157
233.jpg, 1479401087.45, 17, 537415.728096, 537415.728096, 544.463053807, 1.31305380721, -0.00589358234728, -0.00218673638543, 0.462096523923
234.jpg, 1479401088.22, 17, 537415.765456, 537415.765456, 545.253690022, 2.10369002194, 0.0370964023899, -0.00734926855004, 0.455339874747
235.jpg, 1479401089.15, 17, 537415.756384, 537415.756384, 546.121419642, 2.97141964189, 0.00212558825943, -0.00379507429566, 0.456773123506
236.jpg, 1479401090.23, 17, 537415.738102, 537415.738102, 546.65123509, 3.50123509006, 0.138794652935, -0.0515217626854, 0.450052974841
237.jpg, 1479401091.12, 17, 537415.80964, 537415.80964, 547.073202175, 3.92320217498, 0.0609257409878, -0.056002190319, 0.433799530096
238.jpg, 1479401092.11, 17, 537416.003747, 537416.003747, 547.733893815, 4.58389381485, 0.0439735493048, 0.160620556947, 0.21330026386
239.jpg, 1479401093.21, 17, 537418.158114, 537418.158114, 547.971980118, 4.82198011798, 0.0950442312063, 0.150843843476, 0.152316322684
240.jpg, 1479401094.19, 17, 537421.072685, 537421.072685, 548.242254589, 5.09225458941, 0.117469828058, 0.0983804504866, 0.162323303894
241.jpg, 1479401095.09, 17, 537424.002258, 537424.002258, 548.247042709, 5.09704270933, 0.0736742574127, 0.071793126432, 0.172971498961
242.jpg, 1479401095.96, 17, 537426.999856, 537426.999856, 548.264991227, 5.11499122727, 0.0444729262132, 0.0832223499639, 0.156691823108
243.jpg, 1479401096.82, 17, 537430.16627, 537430.16627, 548.245557925, 5.09555792547, 0.0240628144943, 0.0873064356201, 0.145138042002
244.jpg, 1479401097.75, 17, 537433.526555, 537433.526555, 548.176998992, 5.02699899169, 0.0302190666415, 0.092964773922, 0.128047966479
245.jpg, 1479401098.66, 17, 537436.656706, 537436.656706, 548.083047692, 4.93304769176, 0.0378449171442, 0.0760126697614, 0.123434866715
246.jpg, 1479401099.56, 17, 537439.781898, 537439.781898, 547.925272725, 4.77527272511, 0.0330249892317, 0.0546217236189, 0.128768577784
247.jpg, 1479401100.32, 17, 537442.364007, 537442.364007, 547.761168216, 4.61116821595, 0.0543109279802, 0.0363283341622, 0.157961782633
248.jpg, 1479401101.15, 17, 537444.948902, 537444.948902, 547.808594796, 4.65859479613, 0.0458652632233, 0.0917783170138, 0.152048913326
249.jpg, 1479401102.07, 17, 537447.9568, 537447.9568, 548.058265595, 4.90826559544, 0.0648415034721, 0.111600223548, 0.130842309205
250.jpg, 1479401102.92, 17, 537451.07087, 537451.07087, 548.248229005, 5.09822900527, 0.0701567880018, 0.10255112573, 0.131683813298
251.jpg, 1479401103.77, 17, 537454.308225, 537454.308225, 548.204984166, 5.0549841665, 0.0786141908325, 0.0674646732083, 0.144895379669
252.jpg, 1479401104.6, 17, 537457.54111, 537457.54111, 548.307294232, 5.157294232, 0.090327167732, 0.0665729804377, 0.122832428676
253.jpg, 1479401105.35, 17, 537460.412995, 537460.412995, 548.404771572, 5.25477157182, 0.055541392616, 0.0789316114737, 0.123064632925
254.jpg, 1479401105.99, 17, 537462.853489, 537462.853489, 548.355126831, 5.20512683057, 0.0544548987142, 0.0863833866676, 0.117901049102
255.jpg, 1479401106.72, 17, 537465.617512, 537465.617512, 548.240426048, 5.09042604764, 0.0699476136662, 0.0705496751317, 0.121954450682
256.jpg, 1479401107.4, 17, 537468.24149, 537468.24149, 548.082818279, 4.93281827942, 0.0491239340651, 0.0860424047955, 0.133427713647
257.jpg, 1479401108.15, 17, 537470.959632, 537470.959632, 547.950772532, 4.80077253158, 0.0740909120288, 0.0419229124408, 0.134697279789
258.jpg, 1479401108.93, 17, 537473.584802, 537473.584802, 547.860911251, 4.71091125146, 0.0763173422323, 0.0541803511539, 0.155336593781
259.jpg, 1479401109.88, 17, 537476.730587, 537476.730587, 547.84, 4.69, 0.0740766982652, 0.0852652378171, 0.174860412289
260.jpg, 1479401110.6, 17, 537479.325546, 537479.325546, 547.973865405, 4.82386540464, 0.0532104236395, 0.0893344176545, 0.165973004452
261.jpg, 1479401111.53, 17, 537482.671136, 537482.671136, 548.295669379, 5.14566937865, 0.0715264051255, 0.0700118444388, 0.154993147498
262.jpg, 1479401112.29, 17, 537485.528153, 537485.528153, 548.496845428, 5.34684542768, 0.0666137561557, 0.0456933718542, 0.14740373364
263.jpg, 1479401113.06, 17, 537488.325568, 537488.325568, 548.604179703, 5.45417970297, 0.0649147334601, 0.0338235475598, 0.128433899883
264.jpg, 1479401113.92, 17, 537491.3044, 537491.3044, 548.543383363, 5.39338336327, 0.0658393986655, 0.0799240866434, 0.107050995892
265.jpg, 1479401114.75, 17, 537494.344294, 537494.344294, 548.292102783, 5.14210278337, 0.053256949729, 0.101286868711, 0.121668441527
266.jpg, 1479401115.59, 17, 537497.481101, 537497.481101, 548.207468153, 5.0574681531, 0.0605854097428, 0.0703078439369, 0.110430123196
267.jpg, 1479401116.42, 17, 537500.67027, 537500.67027, 548.015421424, 4.86542142378, 0.0696490227135, 0.0527806968951, 0.131074496717
268.jpg, 1479401117.18, 17, 537503.284955, 537503.284955, 547.820454404, 4.67045440375, 0.1049550611, 0.00872554730033, 0.153808900108
269.jpg, 1479401118.13, 17, 537506.03116, 537506.03116, 547.630386131, 4.4803861311, 0.0982286645064, -0.00751750235106, 0.172053959902
270.jpg, 1479401118.89, 17, 537507.677915, 537507.677915, 547.562326471, 4.41232647121, 0.0528025274679, -0.142023052752, 0.178350422869
271.jpg, 1479401119.76, 17, 537508.513148, 537508.513148, 547.648682118, 4.49868211831, 0.0653646191171, -0.116062941327, 0.144941249962
272.jpg, 1479401120.52, 17, 537508.500772, 537508.500772, 547.759892392, 4.60989239151, 0.0457067997008, -0.140578010787, 0.127925670999
273.jpg, 1479401121.28, 17, 537507.823883, 537507.823883, 547.905677701, 4.75567770119, 0.0451516168714, -0.162447854876, 0.112690247685
274.jpg, 1479401122.21, 17, 537505.951735, 537505.951735, 548.016513098, 4.8665130976, 0.0482904132439, -0.175189017104, 0.109908479225
275.jpg, 1479401122.98, 17, 537503.662567, 537503.662567, 548.106828902, 4.95682890223, 0.0366573761494, -0.160586607635, 0.145195217385
276.jpg, 1479401123.88, 17, 537500.473434, 537500.473434, 548.224028644, 5.07402864416, 0.0599895050777, -0.149281115012, 0.167362541296
277.jpg, 1479401124.65, 17, 537497.433372, 537497.433372, 548.172116832, 5.02211683174, 0.0627642959395, -0.100310250118, 0.165866446612
278.jpg, 1479401125.46, 17, 537494.057081, 537494.057081, 548.08551608, 4.93551608037, 0.0683737926163, -0.107391106452, 0.162974606649
279.jpg, 1479401126.26, 17, 537490.814078, 537490.814078, 547.970636249, 4.82063624899, 0.0969126427486, -0.118562423697, 0.170897995627
280.jpg, 1479401127.07, 17, 537487.391407, 537487.391407, 547.833928103, 4.683928103, 0.0860693896417, -0.107579094068, 0.165118204767
281.jpg, 1479401127.92, 17, 537483.859229, 537483.859229, 547.648893888, 4.49889388812, 0.0926673101244, -0.106766882049, 0.159645937465
282.jpg, 1479401128.82, 17, 537480.129327, 537480.129327, 547.59, 4.44, 0.0805884395988, -0.111915509133, 0.141053223531
283.jpg, 1479401129.58, 17, 537476.975036, 537476.975036, 547.71142068, 4.56142068037, 0.0660772911661, -0.1082716702, 0.149237589155
284.jpg, 1479401130.47, 17, 537473.562046, 537473.562046, 547.91, 4.76, 0.0474491978139, -0.104725925421, 0.152557841452
285.jpg, 1479401131.3, 17, 537469.875369, 537469.875369, 547.875096361, 4.72509636066, 0.0592109016699, -0.109996370106, 0.147216163282
286.jpg, 1479401132.17, 17, 537466.214416, 537466.214416, 547.872928022, 4.72292802248, 0.0598106477757, -0.118551082885, 0.152102298336
287.jpg, 1479401132.84, 17, 537463.374252, 537463.374252, 547.840673917, 4.69067391723, 0.0752039630506, -0.113341928565, 0.137307092909
288.jpg, 1479401133.65, 17, 537460.064954, 537460.064954, 547.85967111, 4.70967110971, 0.0626673003483, -0.103259502551, 0.138954627389
289.jpg, 1479401134.37, 17, 537456.976809, 537456.976809, 547.896367768, 4.7463677681, 0.0720547393069, -0.0932333829028, 0.147299644606
290.jpg, 1479401135.19, 17, 537453.651619, 537453.651619, 547.884005654, 4.73400565448, 0.0566112466543, -0.113218152749, 0.141924667038
291.jpg, 1479401135.88, 17, 537450.780947, 537450.780947, 547.81, 4.66, 0.051540039679, -0.0906040830165, 0.133324803619
292.jpg, 1479401136.52, 17, 537448.104321, 537448.104321, 547.864226547, 4.714226547, 0.0695278782191, -0.0950241232726, 0.143913093222
293.jpg, 1479401137.29, 17, 537444.610835, 537444.610835, 548.04, 4.89, 0.0646317990445, -0.0856677524129, 0.154121101223
294.jpg, 1479401138.15, 17, 537441.095453, 537441.095453, 547.970926508, 4.82092650786, 0.0486467605364, -0.0939267871883, 0.149773877774
295.jpg, 1479401138.96, 17, 537437.690419, 537437.690419, 547.7829366, 4.63293659996, 0.0749788623087, -0.107190320074, 0.137883571103
296.jpg, 1479401139.78, 17, 537434.165156, 537434.165156, 547.871034905, 4.72103490468, 0.06220742186, -0.11671933884, 0.140722352893
297.jpg, 1479401140.61, 17, 537430.452699, 537430.452699, 547.854036375, 4.7040363753, 0.0494265923691, -0.105520900611, 0.138375353116
298.jpg, 1479401141.38, 17, 537426.793712, 537426.793712, 547.971371113, 4.82137111301, 0.0555998411576, -0.101522168379, 0.153557313023
299.jpg, 1479401142.19, 17, 537423.078041, 537423.078041, 548.017466216, 4.86746621592, 0.0550293761114, -0.122230689474, 0.152811931951
300.jpg, 1479401142.98, 17, 537419.67476, 537419.67476, 548.015505191, 4.86550519112, 0.0649799853563, 0.045341514051, 0.152260259786
301.jpg, 1479401143.96, 17, 537416.134901, 537416.134901, 547.941449887, 4.79144988708, 0.0648544785231, -0.0177367608601, 0.159698724223
302.jpg, 1479401144.76, 17, 537414.194861, 537414.194861, 547.667884063, 4.51788406288, 0.0506853058794, 0.173943672374, 0.119241777087
303.jpg, 1479401145.63, 17, 537413.414469, 537413.414469, 547.49, 4.34, 0.102629895582, -0.0534839709102, 0.0742576233668
304.jpg, 1479401146.67, 17, 537412.895037, 537412.895037, 547.619222273, 4.46922227264, 0.0702568663659, 0.058142869404, 0.107140078956
305.jpg, 1479401147.59, 17, 537412.876912, 537412.876912, 547.647144066, 4.49714406621, 0.0650009948837, 0.0309738486411, 0.127887161675
306.jpg, 1479401148.57, 17, 537412.862711, 537412.862711, 548.374903896, 5.22490389622, -0.0032201003519, -0.00867341255379, 0.132721033783
307.jpg, 1479401149.48, 17, 537412.624637, 537412.624637, 548.848323335, 5.6983233353, 0.0258204584928, -0.00279577449635, 0.198563828107
308.jpg, 1479401150.44, 17, 537412.497965, 537412.497965, 548.814613387, 5.66461338676, 0.153685792545, -0.042801222616, 0.264201181563
309.jpg, 1479401151.19, 17, 537412.393967, 537412.393967, 548.079886481, 4.92988648139, 0.129669841159, -0.0349461764518, 0.251473089962
310.jpg, 1479401151.93, 17, 537412.302158, 537412.302158, 547.117888936, 3.96788893598, 0.108662366245, -0.00963296052023, 0.242671330069
311.jpg, 1479401152.66, 17, 537412.32143, 537412.32143, 546.55102805, 3.40102804962, 0.059245798869, 0.00522219618651, 0.273621249721
312.jpg, 1479401153.75, 17, 537412.321436, 537412.321436, 546.11877468, 2.96877468006, 0.119074043476, -0.00487656929059, 0.267673378655
313.jpg, 1479401154.86, 17, 537412.435775, 537412.435775, 545.009972267, 1.85997226655, 0.0882091494957, -0.00799717216906, 0.281442590542
314.jpg, 1479401155.94, 17, 537412.374199, 537412.374199, 544.554780183, 1.40478018251, 0.0356023595944, -0.00219875409389, 0.273809252621
315.jpg, 1479401157.03, 17, 537412.171204, 537412.171204, 544.173365879, 1.02336587941, 0.0825820164697, -0.00791893491916, 0.256998006517
316.jpg, 1479401158.07, 17, 537412.008533, 537412.008533, 544.004722772, 0.854722771788, 0.0308590614142, -0.00961675953301, 0.239273283842
317.jpg, 1479401158.97, 17, 537411.933928, 537411.933928, 543.911028041, 0.761028040503, 0.0343254836762, -0.0084309128153, 0.240475615714
318.jpg, 1479401159.58, 17, 537411.924297, 537411.924297, 543.860060873, 0.710060873123, 0.0353504912632, -0.00912070282976, 0.242531646047
319.jpg, 1479401160.1, 17, 537411.933412, 537411.933412, 543.814865004, 0.664865004207, 0.036356216987, -0.00951691543062, 0.243911464545
320.jpg, 1479401160.6, 17, 537412.074173, 537412.074173, 543.678804825, 0.528804825279, 0.0383897317211, -0.0102937952849, 0.244393768186
321.jpg, 1479401160.99, 17, 537412.113876, 537412.113876, 543.706382839, 0.556382838567, 0.0409303907589, -0.0118253030333, 0.245389521294
322.jpg, 1479401161.41, 17, 537412.109922, 537412.109922, 543.73943254, 0.589432540331, 0.0436860002304, -0.01341163191, 0.24619901915
323.jpg, 1479401161.84, 17, 537412.120783, 537412.120783, 543.762277665, 0.612277665268, 0.0459029239805, -0.0149737305826, 0.247757598234
324.jpg, 1479401162.28, 17, 537412.161222, 537412.161222, 543.793817565, 0.643817564807, 0.047444773583, -0.0163381678112, 0.248812469709
325.jpg, 1479401162.74, 17, 537412.214879, 537412.214879, 543.816061571, 0.66606157086, 0.0482644017407, -0.0172494353903, 0.250063918947
326.jpg, 1479401163.12, 17, 537412.280434, 537412.280434, 543.81, 0.66, 0.0489723412728, -0.0179449854659, 0.251359211927
327.jpg, 1479401163.62, 17, 537412.296295, 537412.296295, 543.780426766, 0.630426766219, 0.049081202836, -0.0187638787448, 0.253195411209
328.jpg, 1479401163.99, 17, 537412.32845, 537412.32845, 543.77, 0.62, 0.0488457796779, -0.0191765572506, 0.254410995905
329.jpg, 1479401164.43, 17, 537412.384787, 537412.384787, 543.748759514, 0.59875951424, 0.0481959729218, -0.019562138834, 0.255961879988
330.jpg, 1479401164.85, 17, 537412.402444, 537412.402444, 543.74, 0.59, 0.0474284958672, -0.0198634583938, 0.257390194547
331.jpg, 1479401165.24, 17, 537412.413794, 537412.413794, 543.717226227, 0.567226226781, 0.046519696808, -0.020083934023, 0.258715761763
332.jpg, 1479401165.62, 17, 537412.448568, 537412.448568, 543.698245404, 0.548245403588, 0.0457710518924, -0.0200799080779, 0.259984494746
333.jpg, 1479401166.05, 17, 537412.466016, 537412.466016, 543.666791224, 0.516791223526, 0.0449366934801, -0.0201909120744, 0.261215510245
334.jpg, 1479401166.46, 17, 537412.484005, 537412.484005, 543.647974398, 0.497974397717, 0.0441901844097, -0.0202429084856, 0.262513525673
335.jpg, 1479401166.87, 17, 537412.516873, 537412.516873, 543.64, 0.49, 0.0435834666546, -0.0203136206289, 0.263692296886
336.jpg, 1479401167.36, 17, 537412.58729, 537412.58729, 543.65, 0.5, 0.0427127398013, -0.0200786505278, 0.264705522029
337.jpg, 1479401167.77, 17, 537412.631066, 537412.631066, 543.65, 0.5, 0.0420612187946, -0.0197460361152, 0.265454314817
338.jpg, 1479401168.17, 17, 537412.642011, 537412.642011, 543.658239058, 0.508239058235, 0.0415400360492, -0.0195528863639, 0.266281248149
339.jpg, 1479401168.59, 17, 537412.66138, 537412.66138, 543.679067699, 0.529067698808, 0.0409862718276, -0.0193450091612, 0.267145871879
340.jpg, 1479401169.02, 17, 537412.642476, 537412.642476, 543.680524176, 0.530524176447, 0.040747155853, -0.0192195429789, 0.268202155842
341.jpg, 1479401169.42, 17, 537412.650897, 537412.650897, 543.691173624, 0.541173624065, 0.0403182317809, -0.0191791712554, 0.269148620593
342.jpg, 1479401169.93, 17, 537412.655739, 537412.655739, 543.7, 0.55, 0.0401936464615, -0.019267790306, 0.270222374923
343.jpg, 1479401170.31, 17, 537412.659883, 537412.659883, 543.694733894, 0.544733894066, 0.0399324449952, -0.0192089755901, 0.271031041814
344.jpg, 1479401170.72, 17, 537412.673433, 537412.673433, 543.715239158, 0.565239157916, 0.0396048169338, -0.0193194157415, 0.271708969496
345.jpg, 1479401171.1, 17, 537412.673157, 537412.673157, 543.72, 0.57, 0.0392793681221, -0.0192796834341, 0.272431395582
346.jpg, 1479401171.49, 17, 537412.659938, 537412.659938, 543.713972629, 0.563972629449, 0.039166866643, -0.0194755017415, 0.273367021741
347.jpg, 1479401172.0, 17, 537412.627743, 537412.627743, 543.748766618, 0.598766617914, 0.0391016050764, -0.0197489533182, 0.274373861737
348.jpg, 1479401172.39, 17, 537412.615585, 537412.615585, 543.76, 0.61, 0.0387174980039, -0.0199256404035, 0.275112470558
349.jpg, 1479401172.83, 17, 537412.597573, 537412.597573, 543.780349531, 0.630349530853, 0.0386052559934, -0.0201690486833, 0.27590832472
350.jpg, 1479401173.21, 17, 537412.606295, 537412.606295, 543.780206441, 0.630206441401, 0.0385098106532, -0.0201141147778, 0.276479388328
351.jpg, 1479401173.61, 17, 537412.623962, 537412.623962, 543.779548064, 0.629548064456, 0.038106026566, -0.0200061529353, 0.277695728165
352.jpg, 1479401174.06, 17, 537412.60671, 537412.60671, 543.77, 0.62, 0.037741813853, -0.0199235391721, 0.278459147873
353.jpg, 1479401174.56, 17, 537412.567433, 537412.567433, 543.7771444, 0.627144399708, 0.0375178598323, -0.0197895916053, 0.279156158998
354.jpg, 1479401174.96, 17, 537412.580036, 537412.580036, 543.787500438, 0.637500437863, 0.0375069079673, -0.019761383367, 0.279697237693
355.jpg, 1479401175.42, 17, 537412.642481, 537412.642481, 543.79, 0.64, 0.0371340695324, -0.0196559652443, 0.280392727871
356.jpg, 1479401175.82, 17, 537412.669083, 537412.669083, 543.8, 0.65, 0.0367610543434, -0.0194258019817, 0.281046940073
357.jpg, 1479401176.28, 17, 537412.678035, 537412.678035, 543.79, 0.64, 0.036367490286, -0.0193286856488, 0.281964140005
358.jpg, 1479401176.7, 17, 537412.672356, 537412.672356, 543.77638406, 0.626384059665, 0.036296221096, -0.019055123968, 0.282706552998
359.jpg, 1479401177.12, 17, 537412.704652, 537412.704652, 543.76, 0.61, 0.0361208440155, -0.0188534700319, 0.28363955179
360.jpg, 1479401177.52, 17, 537412.695946, 537412.695946, 543.76, 0.61, 0.0359741619471, -0.018573747601, 0.284076229143
361.jpg, 1479401177.94, 17, 537412.696148, 537412.696148, 543.754196054, 0.604196054436, 0.0355227323715, -0.0182628928858, 0.284535307158
362.jpg, 1479401178.33, 17, 537412.709596, 537412.709596, 543.744874919, 0.594874918825, 0.0351540017197, -0.018057236756, 0.285066968886
363.jpg, 1479401178.74, 17, 537412.718654, 537412.718654, 543.74, 0.59, 0.0349006979522, -0.0179357400128, 0.28543501754
364.jpg, 1479401179.13, 17, 537412.708853, 537412.708853, 543.73, 0.58, 0.0347371062088, -0.0179351288024, 0.285804201055
365.jpg, 1479401179.62, 17, 537412.730541, 537412.730541, 543.73, 0.58, 0.0348924660753, -0.01774602064, 0.285990784928
366.jpg, 1479401180.0, 17, 537412.714764, 537412.714764, 543.758633938, 0.608633938495, 0.0347990119683, -0.0175983779572, 0.285853558743
367.jpg, 1479401180.44, 17, 537412.685879, 537412.685879, 543.780507135, 0.630507135016, 0.0349415737045, -0.017381442725, 0.285826569251
368.jpg, 1479401180.84, 17, 537412.650456, 537412.650456, 543.790869052, 0.640869051762, 0.0349826728006, -0.017055875149, 0.285836290212
369.jpg, 1479401181.2, 17, 537412.642307, 537412.642307, 543.8, 0.65, 0.0349554849544, -0.0170442224455, 0.285945062148
370.jpg, 1479401181.65, 17, 537412.652212, 537412.652212, 543.801746361, 0.651746360852, 0.0347958464355, -0.0172319767139, 0.286326739172
371.jpg, 1479401182.11, 17, 537412.664289, 537412.664289, 543.81, 0.66, 0.034493072259, -0.0170432632763, 0.286467214571
372.jpg, 1479401182.56, 17, 537412.669375, 537412.669375, 543.81, 0.66, 0.0343098580799, -0.0174122159235, 0.286674443806
373.jpg, 1479401182.91, 17, 537412.643844, 537412.643844, 543.808713255, 0.658713255211, 0.0340683452292, -0.0175371829653, 0.286945218418
374.jpg, 1479401183.38, 17, 537412.610811, 537412.610811, 543.83, 0.68, 0.0339119004902, -0.0175805155757, 0.286867034354
375.jpg, 1479401183.74, 17, 537412.598239, 537412.598239, 543.834054629, 0.684054629301, 0.0336571506089, -0.0178066413143, 0.287028933523
376.jpg, 1479401184.19, 17, 537412.607154, 537412.607154, 543.821469283, 0.671469283211, 0.0331111712242, -0.0179077761059, 0.287394592468
377.jpg, 1479401184.66, 17, 537412.580448, 537412.580448, 543.828346042, 0.678346042326, 0.0328587866509, -0.0180155052333, 0.287380687555
378.jpg, 1479401185.05, 17, 537412.598531, 537412.598531, 543.81, 0.66, 0.0326447928749, -0.0182303884293, 0.287806565225
379.jpg, 1479401185.47, 17, 537412.589602, 537412.589602, 543.8, 0.65, 0.0325447752631, -0.0183688561645, 0.287924907722
380.jpg, 1479401185.88, 17, 537412.593687, 537412.593687, 543.82, 0.67, 0.0324042504237, -0.01868114505, 0.287660355507
381.jpg, 1479401186.26, 17, 537412.616346, 537412.616346, 543.83, 0.68, 0.0323058150822, -0.0190054629896, 0.28755722922
382.jpg, 1479401186.78, 17, 537412.60745, 537412.60745, 543.814858065, 0.664858065304, 0.0320348635513, -0.0192203370186, 0.287733663716
383.jpg, 1479401187.16, 17, 537412.616275, 537412.616275, 543.817971123, 0.667971122687, 0.0320354721816, -0.0193410256377, 0.28770334072
384.jpg, 1479401187.61, 17, 537412.616177, 537412.616177, 543.83, 0.68, 0.0315252247082, -0.0193547826862, 0.287528199704
385.jpg, 1479401188.05, 17, 537412.661749, 537412.661749, 543.84, 0.69, 0.0314255911246, -0.019258526069, 0.28743575641
386.jpg, 1479401188.45, 17, 537412.668429, 537412.668429, 543.85, 0.7, 0.0313710920454, -0.0191343407593, 0.287032058906
387.jpg, 1479401188.86, 17, 537412.658675, 537412.658675, 543.842112835, 0.692112834638, 0.031227544415, -0.0191218756621, 0.286838267931
388.jpg, 1479401189.29, 17, 537412.642942, 537412.642942, 543.85, 0.7, 0.031067368491, -0.019062988846, 0.286682137445
389.jpg, 1479401189.7, 17, 537412.651889, 537412.651889, 543.84668351, 0.696683509884, 0.030949908632, -0.0189776719713, 0.28658958876
390.jpg, 1479401190.11, 17, 537412.668155, 537412.668155, 543.845865668, 0.695865668312, 0.0307374090312, -0.0187821820525, 0.286364447506
391.jpg, 1479401190.51, 17, 537412.674916, 537412.674916, 543.83, 0.68, 0.0306282071647, -0.0187273392206, 0.286137949335
392.jpg, 1479401190.91, 17, 537412.678666, 537412.678666, 543.82, 0.67, 0.0303504694969, -0.0186623240832, 0.285896790736
393.jpg, 1479401191.32, 17, 537412.704896, 537412.704896, 543.83, 0.68, 0.0302513113376, -0.0185388575247, 0.285417309155
394.jpg, 1479401191.79, 17, 537412.746849, 537412.746849, 543.84, 0.69, 0.0303190009227, -0.0185010259334, 0.284901659101
395.jpg, 1479401192.23, 17, 537412.740606, 537412.740606, 543.849592574, 0.699592574253, 0.0299076759277, -0.0184910813261, 0.284662511349
396.jpg, 1479401192.65, 17, 537412.71244, 537412.71244, 543.84, 0.69, 0.0299401363378, -0.0185920307788, 0.28428511361
397.jpg, 1479401193.06, 17, 537412.687569, 537412.687569, 543.84, 0.69, 0.0296138167133, -0.0186385237259, 0.283968677018
398.jpg, 1479401193.41, 17, 537412.695832, 537412.695832, 543.849310836, 0.699310836323, 0.0292991460043, -0.0185097958416, 0.283600899261
399.jpg, 1479401193.86, 17, 537412.723, 537412.723, 543.85, 0.7, 0.0290708852589, -0.0185860182419, 0.283148430569
400.jpg, 1479401194.23, 17, 537412.705003, 537412.705003, 543.850188875, 0.700188875052, 0.0288020567541, -0.0186370609048, 0.282830689166
401.jpg, 1479401194.77, 17, 537412.704966, 537412.704966, 543.877122804, 0.727122803784, 0.0285728126597, -0.0186539306056, 0.282073990909
402.jpg, 1479401195.19, 17, 537412.687125, 537412.687125, 543.887960599, 0.737960598508, 0.0283698439711, -0.0187956139558, 0.281662358568
403.jpg, 1479401195.57, 17, 537412.64536, 537412.64536, 543.89, 0.74, 0.028012740597, -0.0187677037187, 0.281033517392
404.jpg, 1479401195.98, 17, 537412.630794, 537412.630794, 543.882218753, 0.73221875299, 0.0276379080397, -0.0187534468918, 0.280529429792
405.jpg, 1479401196.43, 17, 537412.588917, 537412.588917, 543.890549427, 0.740549426784, 0.0272025033681, -0.0189098856808, 0.279911260857
406.jpg, 1479401196.85, 17, 537412.589461, 537412.589461, 543.89, 0.74, 0.0269789908806, -0.0188384253129, 0.278986858803
407.jpg, 1479401197.29, 17, 537412.600978, 537412.600978, 543.9, 0.75, 0.026926501941, -0.0187552972069, 0.27829522829
408.jpg, 1479401197.69, 17, 537412.615831, 537412.615831, 543.912984776, 0.762984775752, 0.0266446262959, -0.0184812131871, 0.277496335976
409.jpg, 1479401198.09, 17, 537412.612817, 537412.612817, 543.923322863, 0.773322862813, 0.0264260548449, -0.0181506159558, 0.276534173813
410.jpg, 1479401198.57, 17, 537412.597861, 537412.597861, 543.937377847, 0.787377846948, 0.0264667963429, -0.0175266882801, 0.275279988676
411.jpg, 1479401199.04, 17, 537412.598492, 537412.598492, 543.931590893, 0.781590893364, 0.0263571101442, -0.0172084440894, 0.27437943527
412.jpg, 1479401199.46, 17, 537412.622716, 537412.622716, 543.96, 0.81, 0.0258444172569, -0.0167772805541, 0.273272959708
413.jpg, 1479401199.87, 17, 537412.617238, 537412.617238, 543.97, 0.82, 0.0255232826744, -0.0164482618138, 0.272233907491
414.jpg, 1479401200.3, 17, 537412.641799, 537412.641799, 543.977050577, 0.827050577391, 0.0249172035731, -0.0159689795932, 0.271197123187
415.jpg, 1479401200.7, 17, 537412.618621, 537412.618621, 543.99, 0.84, 0.0245693334806, -0.015667460385, 0.270224650486
416.jpg, 1479401201.1, 17, 537412.600113, 537412.600113, 543.997454202, 0.847454201893, 0.0241540627752, -0.0154350524003, 0.269516277845
417.jpg, 1479401201.5, 17, 537412.577264, 537412.577264, 544.013365229, 0.863365228824, 0.0242342766934, -0.0154519605695, 0.268529619957
418.jpg, 1479401201.95, 17, 537412.566245, 537412.566245, 544.013948086, 0.863948085735, 0.0243594261574, -0.0153152089016, 0.267506186138
419.jpg, 1479401202.33, 17, 537412.544702, 537412.544702, 543.999512947, 0.84951294748, 0.0241469564282, -0.0151532123749, 0.266668494358
420.jpg, 1479401202.72, 17, 537412.509862, 537412.509862, 543.985005299, 0.835005299193, 0.0240646039887, -0.0150960292773, 0.265860078461
421.jpg, 1479401203.12, 17, 537412.474902, 537412.474902, 543.96, 0.81, 0.0240736798409, -0.015166590409, 0.265081871655
422.jpg, 1479401203.58, 17, 537412.450097, 537412.450097, 543.932206352, 0.782206352248, 0.0242243718217, -0.0154707878481, 0.264085183517
423.jpg, 1479401204.0, 17, 537412.407243, 537412.407243, 543.93, 0.78, 0.0240772688498, -0.0153501175324, 0.262980364435
424.jpg, 1479401204.42, 17, 537412.377974, 537412.377974, 543.93, 0.78, 0.0239990755543, -0.0154270177489, 0.261760450781
425.jpg, 1479401204.83, 17, 537412.386471, 537412.386471, 543.940436754, 0.790436753515, 0.0238754583594, -0.0152401295899, 0.260305792251
426.jpg, 1479401205.2, 17, 537412.394197, 537412.394197, 543.95, 0.8, 0.023585986142, -0.0153681852214, 0.259179180416
427.jpg, 1479401205.63, 17, 537412.377303, 537412.377303, 543.93, 0.78, 0.0233336418282, -0.0153907557355, 0.258097314183
428.jpg, 1479401206.16, 17, 537412.37721, 537412.37721, 543.936123744, 0.78612374383, 0.0232889704501, -0.0153350164112, 0.25633047592
429.jpg, 1479401206.55, 17, 537412.363204, 537412.363204, 543.94, 0.79, 0.0232334158853, -0.0153610154556, 0.255055858522
430.jpg, 1479401206.99, 17, 537412.350501, 537412.350501, 543.957220337, 0.807220336569, 0.0231272807851, -0.0153290692134, 0.253818603015
431.jpg, 1479401207.47, 17, 537412.349348, 537412.349348, 543.96, 0.81, 0.0229493428434, -0.0152377439936, 0.252200879423
432.jpg, 1479401207.87, 17, 537412.350466, 537412.350466, 543.948697641, 0.798697641344, 0.022531785304, -0.0152961681233, 0.251160964321
433.jpg, 1479401208.22, 17, 537412.334099, 537412.334099, 543.930801641, 0.780801640762, 0.0225154210919, -0.0153567591366, 0.250274502513
434.jpg, 1479401208.65, 17, 537412.324588, 537412.324588, 543.928763476, 0.778763475579, 0.0224178019619, -0.0153915281508, 0.24901075511
435.jpg, 1479401209.06, 17, 537412.371026, 537412.371026, 543.918183532, 0.76818353174, 0.0222579817376, -0.0155716449761, 0.247764336857
436.jpg, 1479401209.48, 17, 537412.376782, 537412.376782, 543.912500247, 0.762500246886, 0.0221526154533, -0.0158409870309, 0.246365632973
437.jpg, 1479401209.88, 17, 537412.401231, 537412.401231, 543.93, 0.78, 0.0219391781974, -0.0159850694589, 0.244636311373
438.jpg, 1479401210.29, 17, 537412.388207, 537412.388207, 543.923102197, 0.773102196924, 0.0217127699626, -0.0159303060094, 0.243273108106
439.jpg, 1479401210.7, 17, 537412.376429, 537412.376429, 543.933350537, 0.783350537122, 0.0214601591391, -0.0159987060255, 0.241751679581
440.jpg, 1479401211.18, 17, 537412.385336, 537412.385336, 543.95, 0.8, 0.0211840887593, -0.0160102627697, 0.239851107084
441.jpg, 1479401211.59, 17, 537412.377711, 537412.377711, 543.951722612, 0.801722611707, 0.0208613611792, -0.0160401345799, 0.238331769945
442.jpg, 1479401212.03, 17, 537412.376017, 537412.376017, 543.950693783, 0.800693783094, 0.0206326975586, -0.0160890620713, 0.236579801914
443.jpg, 1479401212.4, 17, 537412.36834, 537412.36834, 543.978556031, 0.828556030524, 0.0203758813156, -0.0158514164713, 0.235092018391
444.jpg, 1479401212.86, 17, 537412.349089, 537412.349089, 543.981598744, 0.831598743951, 0.0200644780435, -0.0156926917145, 0.233366325531
445.jpg, 1479401213.22, 17, 537412.340453, 537412.340453, 543.99, 0.84, 0.0197463407772, -0.0155795873584, 0.231856448128
446.jpg, 1479401213.75, 17, 537412.35269, 537412.35269, 544.01, 0.86, 0.0193616061468, -0.0153385259417, 0.230073321551
447.jpg, 1479401214.13, 17, 537412.298998, 537412.298998, 544.031095292, 0.88109529217, 0.0191850569344, -0.0152570155898, 0.228431863367
448.jpg, 1479401214.52, 17, 537412.248004, 537412.248004, 544.04, 0.89, 0.0191579806457, -0.0152647294735, 0.226890210921
449.jpg, 1479401214.97, 17, 537412.218841, 537412.218841, 544.056474479, 0.906474479062, 0.0189701531329, -0.015287506335, 0.225284064087
450.jpg, 1479401215.35, 17, 537412.221053, 537412.221053, 544.05, 0.9, 0.0188938195755, -0.0151381528874, 0.2237996332
451.jpg, 1479401215.77, 17, 537412.217968, 537412.217968, 544.05, 0.9, 0.0186898245669, -0.0148892507854, 0.222237276408
452.jpg, 1479401216.18, 17, 537412.199989, 537412.199989, 544.06, 0.91, 0.0185425022058, -0.0147856540064, 0.220519724185
